,name,raiting,price_level,total_reviews,neightbour,distritos,direction,latitud,longitud,url
0,"L’Autentic, Lebanese Restaurant",4.7,1.0,3095,el Poblenou,Sant Martí,"Rambla del Poblenou, 99, Barcelona",41.4027125,2.198959700000001,https://maps.google.com/?cid=12431300775699998080
1,Ryu Ramen,4.6,1.0,1554,el Poblenou,Sant Martí,"C/ de Sancho de Ávila, 178, Barcelona",41.403607,2.1967174,https://maps.google.com/?cid=10291860638637638817
2,Hideout Burger,4.6,2.0,1333,el Poblenou,Sant Martí,"Av. Diagonal, 121, Barcelona",41.4068193,2.2019885,https://maps.google.com/?cid=388272964278853497
3,Blu Bar,4.4,2.0,2929,el Poblenou,Sant Martí,"Rambla del Poblenou, 11, Barcelona",41.39838719999999,2.2045558,https://maps.google.com/?cid=7633276611991858769
4,Timesburg Poblenou,4.3,2.0,5294,el Poblenou,Sant Martí,"C. de Pujades, 168, Barcelona",41.4007484,2.1997712,https://maps.google.com/?cid=16264303035923570635
